{
"type": "FeatureCollection",
"name": "estaciones",
"crs": { "type": "name", "properties": { "name": "urn:ogc:def:crs:OGC:1.3:CRS84" } },
"features": [
{ "type": "Feature", "properties": { "code_internal": "04302001", "name": "Rio Toro antes Junta Rio La Laguna", "lat": -29.97278, "lon": -70.09194, "elevation": 2165.0, "basin": "Rio Elqui", "fuente": "DGA", "nom_cuen": "Rio Elqui", "longitude": -70.09194, "latitude": -29.97278, "variables_disponibles": "PPT" }, "geometry": { "type": "Point", "coordinates": [ -70.09194, -29.97278 ] } },
{ "type": "Feature", "properties": { "code_internal": "04302014", "name": "Juntas", "lat": -29.97667, "lon": -70.09417, "elevation": 2150.0, "basin": "Rio Elqui", "fuente": "DGA", "nom_cuen": "Rio Elqui", "longitude": -70.09417, "latitude": -29.97667, "variables_disponibles": "AT|PPT" }, "geometry": { "type": "Point", "coordinates": [ -70.09417, -29.97667 ] } },
{ "type": "Feature", "properties": { "code_internal": "04313003", "name": "Cochiguaz", "lat": -30.1425, "lon": -70.40667, "elevation": 1560.0, "basin": "Rio Elqui", "fuente": "DGA", "nom_cuen": "Rio Elqui", "longitude": -70.40667, "latitude": -30.1425, "variables_disponibles": "AT|PPT" }, "geometry": { "type": "Point", "coordinates": [ -70.40667, -30.1425 ] } },
{ "type": "Feature", "properties": { "code_internal": "0430005", "name": "El Tapado 2", "lat": -30.154, "lon": -69.896, "elevation": 4250.0, "basin": "Rio Elqui", "fuente": "CEAZAMET", "nom_cuen": "Rio Elqui", "longitude": -69.896, "latitude": -30.154, "variables_disponibles": "AT" }, "geometry": { "type": "Point", "coordinates": [ -69.896, -30.154 ] } },
{ "type": "Feature", "properties": { "code_internal": "0430006", "name": "Estero Derecho", "lat": -30.384, "lon": -70.413, "elevation": 3020.0, "basin": "Rio Elqui", "fuente": "CEAZAMET", "nom_cuen": "Rio Elqui", "longitude": -70.413, "latitude": -30.384, "variables_disponibles": "AT" }, "geometry": { "type": "Point", "coordinates": [ -70.413, -30.384 ] } },
{ "type": "Feature", "properties": { "code_internal": "04300004", "name": "Glaciar Tapado en Los Corrales", "lat": -30.1554, "lon": -69.88275, "elevation": 4060.0, "basin": "Rio Elqui", "fuente": "DGA", "nom_cuen": "Rio Elqui", "longitude": -69.88275, "latitude": -30.1554, "variables_disponibles": "AT|PPT|SD" }, "geometry": { "type": "Point", "coordinates": [ -69.88275, -30.1554 ] } },
{ "type": "Feature", "properties": { "code_internal": "0430004", "name": "Tapado (TPF)", "lat": -30.1583, "lon": -69.90818, "elevation": 4306.0, "basin": "Rio Elqui", "fuente": "CEAZAMET", "nom_cuen": "Rio Elqui", "longitude": -69.90818, "latitude": -30.1583, "variables_disponibles": "AT|PPT|SD" }, "geometry": { "type": "Point", "coordinates": [ -69.90818, -30.1583 ] } },
{ "type": "Feature", "properties": { "code_internal": "04301005", "name": "Embalse La Laguna", "lat": -30.20222, "lon": -70.04139, "elevation": 3160.0, "basin": "Rio Elqui", "fuente": "DGA", "nom_cuen": "Rio Elqui", "longitude": -70.04139, "latitude": -30.20222, "variables_disponibles": "AT|PPT" }, "geometry": { "type": "Point", "coordinates": [ -70.04139, -30.20222 ] } },
{ "type": "Feature", "properties": { "code_internal": "0430009", "name": "La Laguna", "lat": -30.20311, "lon": -70.03722, "elevation": 3209.0, "basin": "Rio Elqui", "fuente": "CEAZAMET", "nom_cuen": "Rio Elqui", "longitude": -70.03722, "latitude": -30.20311, "variables_disponibles": "AT|PPT|SD" }, "geometry": { "type": "Point", "coordinates": [ -70.03722, -30.20311 ] } },
{ "type": "Feature", "properties": { "code_internal": "04311005", "name": "La Ortiga", "lat": -30.20972, "lon": -70.49028, "elevation": 1560.0, "basin": "Rio Elqui", "fuente": "DGA", "nom_cuen": "Rio Elqui", "longitude": -70.49028, "latitude": -30.20972, "variables_disponibles": "AT|PPT" }, "geometry": { "type": "Point", "coordinates": [ -70.49028, -30.20972 ] } },
{ "type": "Feature", "properties": { "code_internal": "04300001", "name": "Cerro Olivares", "lat": -30.25669, "lon": -69.93542, "elevation": 3550.0, "basin": "Rio Elqui", "fuente": "DGA", "nom_cuen": "Rio Elqui", "longitude": -69.93542, "latitude": -30.25669, "variables_disponibles": "AT|PPT|SD" }, "geometry": { "type": "Point", "coordinates": [ -69.93542, -30.25669 ] } },
{ "type": "Feature", "properties": { "code_internal": "05415004", "name": "Jahuel", "lat": -32.68722, "lon": -70.59639, "elevation": 1020.0, "basin": "Rio Aconcagua", "fuente": "DGA", "nom_cuen": "Rio Aconcagua", "longitude": -70.59639, "latitude": -32.68722, "variables_disponibles": "AT|PPT" }, "geometry": { "type": "Point", "coordinates": [ -70.59639, -32.68722 ] } },
{ "type": "Feature", "properties": { "code_internal": "05404001", "name": "Canal Colorado en Bocatoma", "lat": -32.83833, "lon": -70.35528, "elevation": 1391.0, "basin": "Rio Aconcagua", "fuente": "DGA", "nom_cuen": "Rio Aconcagua", "longitude": -70.35528, "latitude": -32.83833, "variables_disponibles": "AT|PPT" }, "geometry": { "type": "Point", "coordinates": [ -70.35528, -32.83833 ] } },
{ "type": "Feature", "properties": { "code_internal": "05410002", "name": "Rio Aconcagua en Chacabuquito", "lat": -32.85056, "lon": -70.50944, "elevation": 950.0, "basin": "Rio Aconcagua", "fuente": "DGA", "nom_cuen": "Rio Aconcagua", "longitude": -70.50944, "latitude": -32.85056, "variables_disponibles": "AT|PPT" }, "geometry": { "type": "Point", "coordinates": [ -70.50944, -32.85056 ] } },
{ "type": "Feature", "properties": { "code_internal": "05410006", "name": "Vilcuya", "lat": -32.86028, "lon": -70.47167, "elevation": 1100.0, "basin": "Aconcagua", "fuente": "DGA", "nom_cuen": "Rio Aconcagua", "longitude": -70.47167, "latitude": -32.86028, "variables_disponibles": "AT|PPT" }, "geometry": { "type": "Point", "coordinates": [ -70.47167, -32.86028 ] } },
{ "type": "Feature", "properties": { "code_internal": "05401003", "name": "Rio Juncal en Juncal", "lat": -32.87028, "lon": -70.14722, "elevation": 2200.0, "basin": "Rio Aconcagua", "fuente": "DGA", "nom_cuen": "Rio Aconcagua", "longitude": -70.14722, "latitude": -32.87028, "variables_disponibles": "AT|PPT" }, "geometry": { "type": "Point", "coordinates": [ -70.14722, -32.87028 ] } },
{ "type": "Feature", "properties": { "code_internal": "05403002", "name": "Rio Aconcagua en Rio Blanco", "lat": -32.91028, "lon": -70.30722, "elevation": 1420.0, "basin": "Rio Aconcagua", "fuente": "DGA", "nom_cuen": "Rio Aconcagua", "longitude": -70.30722, "latitude": -32.91028, "variables_disponibles": "AT|PPT" }, "geometry": { "type": "Point", "coordinates": [ -70.30722, -32.91028 ] } },
{ "type": "Feature", "properties": { "code_internal": "05411001", "name": "Estero Pocuro en El Sifon", "lat": -32.92056, "lon": -70.54333, "elevation": 1000.0, "basin": "Rio Aconcagua", "fuente": "DGA", "nom_cuen": "Rio Aconcagua", "longitude": -70.54333, "latitude": -32.92056, "variables_disponibles": "PPT" }, "geometry": { "type": "Point", "coordinates": [ -70.54333, -32.92056 ] } },
{ "type": "Feature", "properties": { "code_internal": "05403006", "name": "Riecillos", "lat": -32.9225, "lon": -70.35722, "elevation": 1290.0, "basin": "Rio Aconcagua", "fuente": "DGA", "nom_cuen": "Rio Aconcagua", "longitude": -70.35722, "latitude": -32.9225, "variables_disponibles": "AT|PPT" }, "geometry": { "type": "Point", "coordinates": [ -70.35722, -32.9225 ] } },
{ "type": "Feature", "properties": { "code_internal": "05400005", "name": "Glaciar Monos de Agua", "lat": -32.99361, "lon": -70.02833, "elevation": 4350.0, "basin": "Rio Aconcagua", "fuente": "DGA", "nom_cuen": "Rio Aconcagua", "longitude": -70.02833, "latitude": -32.99361, "variables_disponibles": "AT" }, "geometry": { "type": "Point", "coordinates": [ -70.02833, -32.99361 ] } },
{ "type": "Feature", "properties": { "code_internal": "05733007", "name": "Caleu", "lat": -33.00556, "lon": -70.99361, "elevation": 1120.0, "basin": "Rio Maipo", "fuente": "DGA", "nom_cuen": "Rio Maipo", "longitude": -70.99361, "latitude": -33.00556, "variables_disponibles": "AT|PPT" }, "geometry": { "type": "Point", "coordinates": [ -70.99361, -33.00556 ] } },
{ "type": "Feature", "properties": { "code_internal": "05706004", "name": "Glaciar Juncal Sur", "lat": -33.1175, "lon": -70.1119, "elevation": 4035.0, "basin": "Rio Maipo", "fuente": "DGA", "nom_cuen": "Rio Maipo", "longitude": -70.1119, "latitude": -33.1175, "variables_disponibles": "AT|PPT|SD" }, "geometry": { "type": "Point", "coordinates": [ -70.1119, -33.1175 ] } },
{ "type": "Feature", "properties": { "code_internal": "05706002", "name": "Glaciar Olivares Gamma", "lat": -33.15639, "lon": -70.15278, "elevation": 3628.0, "basin": "Rio Maipo", "fuente": "DGA", "nom_cuen": "Rio Maipo", "longitude": -70.15278, "latitude": -33.15639, "variables_disponibles": "AT|PPT|SD" }, "geometry": { "type": "Point", "coordinates": [ -70.15278, -33.15639 ] } },
{ "type": "Feature", "properties": { "code_internal": "05706005", "name": "Glaciar Olivares Alfa", "lat": -33.1786, "lon": -70.21806, "elevation": 4230.0, "basin": "Rio Maipo", "fuente": "DGA", "nom_cuen": "Rio Maipo", "longitude": -70.21806, "latitude": -33.1786, "variables_disponibles": "AT|PPT|SD" }, "geometry": { "type": "Point", "coordinates": [ -70.21806, -33.1786 ] } },
{ "type": "Feature", "properties": { "code_internal": "05721017", "name": "Estero Yerba Loca en Piedra Carvajal", "lat": -33.22194, "lon": -70.27361, "elevation": 3250.0, "basin": "Rio Maipo", "fuente": "DGA", "nom_cuen": "Rio Maipo", "longitude": -70.27361, "latitude": -33.22194, "variables_disponibles": "AT" }, "geometry": { "type": "Point", "coordinates": [ -70.27361, -33.22194 ] } },
{ "type": "Feature", "properties": { "code_internal": "cerro3puntas", "name": "Cerro3Puntas", "lat": -33.32, "lon": -70.23194, "elevation": 3685.0, "basin": "Rio Maipo", "fuente": "CR2", "nom_cuen": "Rio Maipo", "longitude": -70.23194, "latitude": -33.32, "variables_disponibles": "AT" }, "geometry": { "type": "Point", "coordinates": [ -70.23194, -33.32 ] } },
{ "type": "Feature", "properties": { "code_internal": "05722001", "name": "Estero Arrayan en La Montosa", "lat": -33.32889, "lon": -70.45944, "elevation": 880.0, "basin": "Rio Maipo", "fuente": "DGA", "nom_cuen": "Rio Maipo", "longitude": -70.45944, "latitude": -33.32889, "variables_disponibles": "AT|PPT" }, "geometry": { "type": "Point", "coordinates": [ -70.45944, -33.32889 ] } },
{ "type": "Feature", "properties": { "code_internal": "vallenevado_meteo", "name": "ValleNevado_METEO", "lat": -33.35157, "lon": -70.2468, "elevation": 3042.0, "basin": " Rio Maipo", "fuente": "UdeChile", "nom_cuen": "Rio Maipo", "longitude": -70.2468, "latitude": -33.35157, "variables_disponibles": "AT" }, "geometry": { "type": "Point", "coordinates": [ -70.2468, -33.35157 ] } },
{ "type": "Feature", "properties": { "code_internal": "vallenevado_spa", "name": "ValleNevado_SPA", "lat": -33.35157, "lon": -70.2468, "elevation": 3042.0, "basin": "Rio Maipo", "fuente": "UdeChile", "nom_cuen": "Rio Maipo", "longitude": -70.2468, "latitude": -33.35157, "variables_disponibles": "AT" }, "geometry": { "type": "Point", "coordinates": [ -70.2468, -33.35157 ] } },
{ "type": "Feature", "properties": { "code_internal": "05705004", "name": "Glaciar Tupungatito Bajo", "lat": -33.38667, "lon": -69.84972, "elevation": 4425.0, "basin": "Rio Maipo", "fuente": "DGA", "nom_cuen": "Rio Maipo", "longitude": -69.84972, "latitude": -33.38667, "variables_disponibles": "AT" }, "geometry": { "type": "Point", "coordinates": [ -69.84972, -33.38667 ] } },
{ "type": "Feature", "properties": { "code_internal": "05705003", "name": "Glaciar Tupungatito Alto", "lat": -33.39389, "lon": -69.8125, "elevation": 5575.0, "basin": "Rio Maipo", "fuente": "DGA", "nom_cuen": "Rio Maipo", "longitude": -69.8125, "latitude": -33.39389, "variables_disponibles": "AT" }, "geometry": { "type": "Point", "coordinates": [ -69.8125, -33.39389 ] } },
{ "type": "Feature", "properties": { "code_internal": "05706003", "name": "Valle Olivares", "lat": -33.19099, "lon": -70.11405, "elevation": 2787.0, "basin": "Rio Maipo", "fuente": "DGA", "nom_cuen": "Rio Maipo", "longitude": -70.11405, "latitude": -33.19099, "variables_disponibles": "PPT|SD" }, "geometry": { "type": "Point", "coordinates": [ -70.11405, -33.19099 ] } },
{ "type": "Feature", "properties": { "code_internal": "05721016", "name": "Rio San Francisco antes Junta Estero Yerba Loca", "lat": -33.30861, "lon": -70.35722, "elevation": 1535.0, "basin": "Rio Maipo", "fuente": "DGA", "nom_cuen": "Rio Maipo", "longitude": -70.35722, "latitude": -33.30861, "variables_disponibles": "PPT" }, "geometry": { "type": "Point", "coordinates": [ -70.35722, -33.30861 ] } },
{ "type": "Feature", "properties": { "code_internal": "05721001", "name": "Estero Yerba Loca antes Junta San Francisco", "lat": -33.34444, "lon": -70.36389, "elevation": 1350.0, "basin": "Rio Maipo", "fuente": "DGA", "nom_cuen": "Rio Maipo", "longitude": -70.36389, "latitude": -33.34444, "variables_disponibles": "AT|PPT" }, "geometry": { "type": "Point", "coordinates": [ -70.36389, -33.34444 ] } },
{ "type": "Feature", "properties": { "code_internal": "05720001", "name": "Rio Molina antes Junta San Francisco", "lat": -33.37361, "lon": -70.39639, "elevation": 1158.0, "basin": "Rio Maipo", "fuente": "DGA", "nom_cuen": "Rio Maipo", "longitude": -70.39639, "latitude": -33.37361, "variables_disponibles": "PPT" }, "geometry": { "type": "Point", "coordinates": [ -70.39639, -33.37361 ] } },
{ "type": "Feature", "properties": { "code_internal": "05706001", "name": "Rio Olivares antes Junta Rio Colorado", "lat": -33.49306, "lon": -70.1375, "elevation": 1580.0, "basin": "Rio Maipo", "fuente": "DGA", "nom_cuen": "Rio Maipo", "longitude": -70.1375, "latitude": -33.49306, "variables_disponibles": "AT|PPT" }, "geometry": { "type": "Point", "coordinates": [ -70.1375, -33.49306 ] } },
{ "type": "Feature", "properties": { "code_internal": "05705001", "name": "Rio Colorado Antes Junta Rio Olivares", "lat": -33.495, "lon": -70.13722, "elevation": 1550.0, "basin": "Rio Maipo", "fuente": "DGA", "nom_cuen": "Rio Maipo", "longitude": -70.13722, "latitude": -33.495, "variables_disponibles": "AT|PPT" }, "geometry": { "type": "Point", "coordinates": [ -70.13722, -33.495 ] } },
{ "type": "Feature", "properties": { "code_internal": "05707003", "name": "Maitenes", "lat": -33.53111, "lon": -70.26194, "elevation": 1143.0, "basin": "Rio Maipo", "fuente": "DGA", "nom_cuen": "Rio Maipo", "longitude": -70.26194, "latitude": -33.53111, "variables_disponibles": "AT|PPT" }, "geometry": { "type": "Point", "coordinates": [ -70.26194, -33.53111 ] } },
{ "type": "Feature", "properties": { "code_internal": "05703013", "name": "Portezuelo Echaurren", "lat": -33.57583, "lon": -70.12833, "elevation": 3840.0, "basin": "Rio Maipo", "fuente": "DGA", "nom_cuen": "Rio Maipo", "longitude": -70.12833, "latitude": -33.57583, "variables_disponibles": "AT" }, "geometry": { "type": "Point", "coordinates": [ -70.12833, -33.57583 ] } },
{ "type": "Feature", "properties": { "code_internal": "05703014", "name": "Termas Del Plomo", "lat": -33.6133, "lon": -69.9058, "elevation": 3000.0, "basin": "Rio Maipo", "fuente": "DGA", "nom_cuen": "Rio Maipo", "longitude": -69.9058, "latitude": -33.6133, "variables_disponibles": "AT|PPT|SD" }, "geometry": { "type": "Point", "coordinates": [ -69.9058, -33.6133 ] } },
{ "type": "Feature", "properties": { "code_internal": "05703018", "name": "Glaciar Piramide (EMAM)", "lat": -33.58944, "lon": -69.89056, "elevation": 3448.0, "basin": "Rio Maipo", "fuente": "DGA", "nom_cuen": "Rio Maipo", "longitude": -69.89056, "latitude": -33.58944, "variables_disponibles": "AT" }, "geometry": { "type": "Point", "coordinates": [ -69.89056, -33.58944 ] } },
{ "type": "Feature", "properties": { "code_internal": "05703008", "name": "El Yeso Embalse", "lat": -33.67583, "lon": -70.08861, "elevation": 2475.0, "basin": "Rio Maipo", "fuente": "DGA", "nom_cuen": "Rio Maipo", "longitude": -70.08861, "latitude": -33.67583, "variables_disponibles": "AT|PPT" }, "geometry": { "type": "Point", "coordinates": [ -70.08861, -33.67583 ] } },
{ "type": "Feature", "properties": { "code_internal": "05704004", "name": "San Gabriel", "lat": -33.7825, "lon": -70.23944, "elevation": 1266.0, "basin": "Rio Maipo", "fuente": "DGA", "nom_cuen": "Rio Maipo", "longitude": -70.23944, "latitude": -33.7825, "variables_disponibles": "AT|PPT" }, "geometry": { "type": "Point", "coordinates": [ -70.23944, -33.7825 ] } },
{ "type": "Feature", "properties": { "code_internal": "05702011", "name": "Glaciar San Francisco en Aguas Panimavida", "lat": -33.80583, "lon": -70.07, "elevation": 2220.0, "basin": "Rio Maipo", "fuente": "DGA", "nom_cuen": "Rio Maipo", "longitude": -70.07, "latitude": -33.80583, "variables_disponibles": "AT|PPT" }, "geometry": { "type": "Point", "coordinates": [ -70.07, -33.80583 ] } },
{ "type": "Feature", "properties": { "code_internal": "05702001", "name": "Rio Volcan en Queltehues", "lat": -33.80944, "lon": -70.21028, "elevation": 1365.0, "basin": "Rio Maipo", "fuente": "DGA", "nom_cuen": "Rio Maipo", "longitude": -70.21028, "latitude": -33.80944, "variables_disponibles": "AT|PPT" }, "geometry": { "type": "Point", "coordinates": [ -70.21028, -33.80944 ] } },
{ "type": "Feature", "properties": { "code_internal": "05701009", "name": "Rio Maipo en Queltehues", "lat": -33.81694, "lon": -70.22361, "elevation": 1317.0, "basin": "Rio Maipo", "fuente": "DGA", "nom_cuen": "Rio Maipo", "longitude": -70.22361, "latitude": -33.81694, "variables_disponibles": "PPT" }, "geometry": { "type": "Point", "coordinates": [ -70.22361, -33.81694 ] } },
{ "type": "Feature", "properties": { "code_internal": "05701010", "name": "Las Melosas Ruta de Nieve", "lat": -33.86389, "lon": -70.2725, "elevation": 3320.0, "basin": "Rio Maipo", "fuente": "DGA", "nom_cuen": "Rio Maipo", "longitude": -70.2725, "latitude": -33.86389, "variables_disponibles": "AT|PPT|SD" }, "geometry": { "type": "Point", "coordinates": [ -70.2725, -33.86389 ] } },
{ "type": "Feature", "properties": { "code_internal": "08130006", "name": "Diguillin", "lat": -36.87056, "lon": -71.6425, "elevation": 670.0, "basin": "Rio Itata", "fuente": "DGA", "nom_cuen": "Rio Itata", "longitude": -71.6425, "latitude": -36.87056, "variables_disponibles": "AT|PPT" }, "geometry": { "type": "Point", "coordinates": [ -71.6425, -36.87056 ] } },
{ "type": "Feature", "properties": { "code_internal": "08130004", "name": "Las Trancas", "lat": -36.91083, "lon": -71.47944, "elevation": 1242.0, "basin": "Rio Itata", "fuente": "DGA", "nom_cuen": "Rio Itata", "longitude": -71.47944, "latitude": -36.91083, "variables_disponibles": "AT|PPT" }, "geometry": { "type": "Point", "coordinates": [ -71.47944, -36.91083 ] } },
{ "type": "Feature", "properties": { "code_internal": "08130002", "name": "Rio Diguillin en San Lorenzo (Atacalco)", "lat": -36.92444, "lon": -71.57583, "elevation": 727.0, "basin": "Rio Itata", "fuente": "DGA", "nom_cuen": "Rio Itata", "longitude": -71.57583, "latitude": -36.92444, "variables_disponibles": "PPT" }, "geometry": { "type": "Point", "coordinates": [ -71.57583, -36.92444 ] } },
{ "type": "Feature", "properties": { "code_internal": "09401001", "name": "Tricauco", "lat": -38.84389, "lon": -71.55139, "elevation": 520.0, "basin": "Rio Tolten", "fuente": "DGA", "nom_cuen": "Rio Tolten", "longitude": -71.55139, "latitude": -38.84389, "variables_disponibles": "AT|PPT" }, "geometry": { "type": "Point", "coordinates": [ -71.55139, -38.84389 ] } },
{ "type": "Feature", "properties": { "code_internal": "09416002", "name": "Lago Tinquilco", "lat": -39.1725, "lon": -71.73194, "elevation": 850.0, "basin": "Rio Tolten", "fuente": "DGA", "nom_cuen": "Rio Tolten", "longitude": -71.73194, "latitude": -39.1725, "variables_disponibles": "PPT" }, "geometry": { "type": "Point", "coordinates": [ -71.73194, -39.1725 ] } },
{ "type": "Feature", "properties": { "code_internal": "09412002", "name": "Curarrehue", "lat": -39.365, "lon": -71.58222, "elevation": 420.0, "basin": "Rio Tolten", "fuente": "DGA", "nom_cuen": "Rio Tolten", "longitude": -71.58222, "latitude": -39.365, "variables_disponibles": "AT|PPT" }, "geometry": { "type": "Point", "coordinates": [ -71.58222, -39.365 ] } },
{ "type": "Feature", "properties": { "code_internal": "1110001", "name": "Puyuhuapi", "lat": -44.4479, "lon": -72.5968, "elevation": null, "basin": "Costeras e Islas entre R.Palena y R.Aisen", "fuente": "CIEP", "nom_cuen": "Costeras e Islas entre R.Palena y R.Aisen", "longitude": -72.5968, "latitude": -44.4479, "variables_disponibles": "PPT" }, "geometry": { "type": "Point", "coordinates": [ -72.5968, -44.4479 ] } },
{ "type": "Feature", "properties": { "code_internal": "1110002", "name": "Puerto Cisnes", "lat": -44.7447, "lon": -72.7016, "elevation": null, "basin": "Costeras e Islas entre R.Palena y R.Aisen", "fuente": "CIEP", "nom_cuen": "Costeras e Islas entre R.Palena y R.Aisen", "longitude": -72.7016, "latitude": -44.7447, "variables_disponibles": "PPT" }, "geometry": { "type": "Point", "coordinates": [ -72.7016, -44.7447 ] } },
{ "type": "Feature", "properties": { "code_internal": "1130002", "name": "Mirador Marchant. Coyhaique", "lat": -45.5253, "lon": -72.0981, "elevation": null, "basin": "Rio Aysen", "fuente": "DMC", "nom_cuen": "Rio Aysen", "longitude": -72.0981, "latitude": -45.5253, "variables_disponibles": "AT|PPT" }, "geometry": { "type": "Point", "coordinates": [ -72.0981, -45.5253 ] } },
{ "type": "Feature", "properties": { "code_internal": "1130003", "name": "Teniente Vidal. Coyhaique Ad", "lat": -45.5908, "lon": -72.1022, "elevation": 299.0, "basin": "Rio Aysen", "fuente": "DMC", "nom_cuen": "Rio Aisen", "longitude": -72.1022, "latitude": -45.5908, "variables_disponibles": "AT|PPT" }, "geometry": { "type": "Point", "coordinates": [ -72.1022, -45.5908 ] } },
{ "type": "Feature", "properties": { "code_internal": "1130001", "name": "Cordon Divisadero", "lat": -45.61647, "lon": -72.01345, "elevation": 1430.0, "basin": "Rio Aysen", "fuente": "CECS", "nom_cuen": "Rio Aisen", "longitude": -72.01345, "latitude": -45.61647, "variables_disponibles": "AT|PPT|SD" }, "geometry": { "type": "Point", "coordinates": [ -72.01345, -45.61647 ] } },
{ "type": "Feature", "properties": { "code_internal": "1130004", "name": "Balmaceda Ad", "lat": -45.9183, "lon": -71.6778, "elevation": 517.0, "basin": "Rio Aysen", "fuente": "DMC", "nom_cuen": "Rio Aisen", "longitude": -71.6778, "latitude": -45.9183, "variables_disponibles": "AT|PPT" }, "geometry": { "type": "Point", "coordinates": [ -71.6778, -45.9183 ] } },
{ "type": "Feature", "properties": { "code_internal": "11503002", "name": "Portezuelo Iba ez", "lat": -46.0778, "lon": -72.0508, "elevation": 1080.0, "basin": "Rio Baker", "fuente": "DGA", "nom_cuen": "Rio Baker", "longitude": -72.0508, "latitude": -46.0778, "variables_disponibles": "AT|PPT|SD" }, "geometry": { "type": "Point", "coordinates": [ -72.0508, -46.0778 ] } },
{ "type": "Feature", "properties": { "code_internal": "11503001", "name": "Villa Cerro Castillo", "lat": -46.12111, "lon": -72.15861, "elevation": 345.0, "basin": "Rio Baker", "fuente": "DGA", "nom_cuen": "Rio Baker", "longitude": -72.15861, "latitude": -46.12111, "variables_disponibles": "AT|PPT" }, "geometry": { "type": "Point", "coordinates": [ -72.15861, -46.12111 ] } },
{ "type": "Feature", "properties": { "code_internal": "11505001", "name": "Rio Iba ez en Desembocadura", "lat": -46.26861, "lon": -71.98889, "elevation": 220.0, "basin": "Rio Baker", "fuente": "DGA", "nom_cuen": "Rio Baker", "longitude": -71.98889, "latitude": -46.26861, "variables_disponibles": "AT|PPT" }, "geometry": { "type": "Point", "coordinates": [ -71.98889, -46.26861 ] } },
{ "type": "Feature", "properties": { "code_internal": "11513001", "name": "Bahia Murta", "lat": -46.45583, "lon": -72.6725, "elevation": 240.0, "basin": "Rio Baker", "fuente": "DGA", "nom_cuen": "Rio Baker", "longitude": -72.6725, "latitude": -46.45583, "variables_disponibles": "AT|PPT" }, "geometry": { "type": "Point", "coordinates": [ -72.6725, -46.45583 ] } },
{ "type": "Feature", "properties": { "code_internal": "11521002", "name": "Chile Chico", "lat": -46.54333, "lon": -71.69944, "elevation": 215.0, "basin": "Rio Baker", "fuente": "DGA", "nom_cuen": "Rio Baker", "longitude": -71.69944, "latitude": -46.54333, "variables_disponibles": "AT|PPT" }, "geometry": { "type": "Point", "coordinates": [ -71.69944, -46.54333 ] } },
{ "type": "Feature", "properties": { "code_internal": "11521005", "name": "Lago General Carrera Fachinal", "lat": -46.54333, "lon": -72.22639, "elevation": 18.0, "basin": "Rio Baker", "fuente": "DGA", "nom_cuen": "Rio Baker", "longitude": -72.22639, "latitude": -46.54333, "variables_disponibles": "AT|PPT" }, "geometry": { "type": "Point", "coordinates": [ -72.22639, -46.54333 ] } },
{ "type": "Feature", "properties": { "code_internal": "1150001", "name": "Rio Tranquilo", "lat": -46.6341, "lon": -72.6484, "elevation": null, "basin": "Rio Baker", "fuente": "CIEP", "nom_cuen": "Rio Baker", "longitude": -72.6484, "latitude": -46.6341, "variables_disponibles": "PPT" }, "geometry": { "type": "Point", "coordinates": [ -72.6484, -46.6341 ] } },
{ "type": "Feature", "properties": { "code_internal": "11523002", "name": "Lago General Carrera en Puerto Guadal", "lat": -46.84194, "lon": -72.69722, "elevation": 205.0, "basin": "Rio Baker", "fuente": "DGA", "nom_cuen": "Rio Baker", "longitude": -72.69722, "latitude": -46.84194, "variables_disponibles": "AT|PPT" }, "geometry": { "type": "Point", "coordinates": [ -72.69722, -46.84194 ] } },
{ "type": "Feature", "properties": { "code_internal": "11517002", "name": "Lago General Carrera en Desag e", "lat": -46.84639, "lon": -72.80333, "elevation": 210.0, "basin": "Rio Baker", "fuente": "DGA", "nom_cuen": "Rio Baker", "longitude": -72.80333, "latitude": -46.84639, "variables_disponibles": "AT|PPT" }, "geometry": { "type": "Point", "coordinates": [ -72.80333, -46.84639 ] } },
{ "type": "Feature", "properties": { "code_internal": "11533001", "name": "Estancia Valle Chacabuco", "lat": -47.11861, "lon": -72.49389, "elevation": 343.0, "basin": "Rio Baker", "fuente": "DGA", "nom_cuen": "Rio Baker", "longitude": -72.49389, "latitude": -47.11861, "variables_disponibles": "PPT" }, "geometry": { "type": "Point", "coordinates": [ -72.49389, -47.11861 ] } },
{ "type": "Feature", "properties": { "code_internal": "11532001", "name": "Rio Nef antes Junta Estero El Rebalse", "lat": -47.14, "lon": -73.09389, "elevation": 280.0, "basin": "Rio Baker", "fuente": "DGA", "nom_cuen": "Rio Baker", "longitude": -73.09389, "latitude": -47.14, "variables_disponibles": "AT|PPT" }, "geometry": { "type": "Point", "coordinates": [ -73.09389, -47.14 ] } },
{ "type": "Feature", "properties": { "code_internal": "11540000", "name": "Lago Cachet 2 en Glaciar Colonia ", "lat": -47.19889, "lon": -73.25, "elevation": 427.0, "basin": "Rio Baker", "fuente": "DGA", "nom_cuen": "Rio Baker", "longitude": -73.25, "latitude": -47.19889, "variables_disponibles": "AT|PPT" }, "geometry": { "type": "Point", "coordinates": [ -73.25, -47.19889 ] } },
{ "type": "Feature", "properties": { "code_internal": "1150002", "name": "Tortel", "lat": -47.7949, "lon": -73.5316, "elevation": null, "basin": "Rio Baker", "fuente": "CIEP", "nom_cuen": "Rio Baker", "longitude": -73.5316, "latitude": -47.7949, "variables_disponibles": "PPT" }, "geometry": { "type": "Point", "coordinates": [ -73.5316, -47.7949 ] } },
{ "type": "Feature", "properties": { "code_internal": "riotranquilo_nerc", "name": "RioTranquilo_NERC", "lat": -46.65384, "lon": -72.7643, "elevation": null, "basin": "Rio Baker", "fuente": "CIEP_NERC", "nom_cuen": "Rio Baker", "longitude": -72.7643, "latitude": -46.65384, "variables_disponibles": "AT|PPT" }, "geometry": { "type": "Point", "coordinates": [ -72.7643, -46.65384 ] } },
{ "type": "Feature", "properties": { "code_internal": "01220", "name": "Paso de Agua Negra", "lat": -30.189444, "lon": -69.801445, "elevation": 4459.0, "basin": "San Juan", "fuente": "ainigla?", "nom_cuen": "San Juan", "longitude": -69.801445, "latitude": -30.189444, "variables_disponibles": "SD" }, "geometry": { "type": "Point", "coordinates": [ -69.801445, -30.189444 ] } },
{ "type": "Feature", "properties": { "code_internal": "02325", "name": "La Hoya", "lat": -42.832964, "lon": -71.25382, "elevation": 1530.0, "basin": "Chubut", "fuente": "ainigla?", "nom_cuen": "Chubut", "longitude": -71.25382, "latitude": -42.832964, "variables_disponibles": "SD" }, "geometry": { "type": "Point", "coordinates": [ -71.25382, -42.832964 ] } },
{ "type": "Feature", "properties": { "code_internal": "0430003", "name": "El Jote", "lat": -30.405266, "lon": -70.279483, "elevation": 3660.0, "basin": "Elqui", "fuente": "CEAZAMET", "nom_cuen": "Elqui", "longitude": -70.279483, "latitude": -30.405266, "variables_disponibles": "AT|SD" }, "geometry": { "type": "Point", "coordinates": [ -70.279483, -30.405266 ] } },
{ "type": "Feature", "properties": { "code_internal": "0430012", "name": "Llano de Las Liebres", "lat": -30.254, "lon": -69.934, "elevation": 3565.0, "basin": "Elqui", "fuente": "CEAZAMET", "nom_cuen": "Elqui", "longitude": -69.934, "latitude": -30.254, "variables_disponibles": "AT|SD" }, "geometry": { "type": "Point", "coordinates": [ -69.934, -30.254 ] } },
{ "type": "Feature", "properties": { "code_internal": "0430014", "name": "Los Corrales", "lat": -30.161408, "lon": -69.875994, "elevation": 3982.0, "basin": "Elqui", "fuente": "CEAZAMET", "nom_cuen": "Elqui", "longitude": -69.875994, "latitude": -30.161408, "variables_disponibles": "AT|SD" }, "geometry": { "type": "Point", "coordinates": [ -69.875994, -30.161408 ] } },
{ "type": "Feature", "properties": { "code_internal": "0430015", "name": "Paso Agua Negra", "lat": -30.191, "lon": -69.826, "elevation": 4774.0, "basin": "Elqui", "fuente": "CEAZAMET", "nom_cuen": "Elqui", "longitude": -69.826, "latitude": -30.191, "variables_disponibles": "AT" }, "geometry": { "type": "Point", "coordinates": [ -69.826, -30.191 ] } },
{ "type": "Feature", "properties": { "code_internal": "0430016", "name": "Casa del Canto", "lat": -31.417337, "lon": -70.589, "elevation": 3570.0, "basin": "Limari", "fuente": "CEAZAMET", "nom_cuen": "Limari", "longitude": -70.589, "latitude": -31.417337, "variables_disponibles": "SD" }, "geometry": { "type": "Point", "coordinates": [ -70.589, -31.417337 ] } },
{ "type": "Feature", "properties": { "code_internal": "0430017", "name": "Tascadero", "lat": -31.262951, "lon": -70.539993, "elevation": 3427.0, "basin": "Limari", "fuente": "CEAZAMET", "nom_cuen": "Limari", "longitude": -70.539993, "latitude": -31.262951, "variables_disponibles": "SD" }, "geometry": { "type": "Point", "coordinates": [ -70.539993, -31.262951 ] } },
{ "type": "Feature", "properties": { "code_internal": "04511004", "name": "Cerro Vega Negra", "lat": -30.903333, "lon": -70.515833, "elevation": 3600.0, "basin": "Limari", "fuente": "DGA", "nom_cuen": "Limari", "longitude": -70.515833, "latitude": -30.903333, "variables_disponibles": "SD" }, "geometry": { "type": "Point", "coordinates": [ -70.515833, -30.903333 ] } },
{ "type": "Feature", "properties": { "code_internal": "04520006", "name": "Quebrada Larga Cota 3500", "lat": -30.725278, "lon": -70.291667, "elevation": 3500.0, "basin": "Limari", "fuente": "DGA", "nom_cuen": "Limari", "longitude": -70.291667, "latitude": -30.725278, "variables_disponibles": "SD" }, "geometry": { "type": "Point", "coordinates": [ -70.291667, -30.725278 ] } },
{ "type": "Feature", "properties": { "code_internal": "04700002", "name": "El Soldado", "lat": -32.006667, "lon": -70.321389, "elevation": 3290.0, "basin": "Choapa", "fuente": "DGA", "nom_cuen": "Choapa", "longitude": -70.321389, "latitude": -32.006667, "variables_disponibles": "SD" }, "geometry": { "type": "Point", "coordinates": [ -70.321389, -32.006667 ] } },
{ "type": "Feature", "properties": { "code_internal": "05100003", "name": "Nacimiento Del Sobrante", "lat": -32.188889, "lon": -70.483056, "elevation": 3380.0, "basin": "Petorca", "fuente": "DGA", "nom_cuen": "Petorca", "longitude": -70.483056, "latitude": -32.188889, "variables_disponibles": "SD" }, "geometry": { "type": "Point", "coordinates": [ -70.483056, -32.188889 ] } },
{ "type": "Feature", "properties": { "code_internal": "05401007", "name": "Portillo", "lat": -32.844444, "lon": -70.110833, "elevation": 3000.0, "basin": "Aconcagua", "fuente": "DGA", "nom_cuen": "Aconcagua", "longitude": -70.110833, "latitude": -32.844444, "variables_disponibles": "AT|SD" }, "geometry": { "type": "Point", "coordinates": [ -70.110833, -32.844444 ] } },
{ "type": "Feature", "properties": { "code_internal": "05414004", "name": "Resguardo Los Patos", "lat": -32.50139, "lon": -70.58167, "elevation": 1220.0, "basin": "Aconcagua", "fuente": "DGA", "nom_cuen": "Aconcagua", "longitude": -70.58167, "latitude": -32.50139, "variables_disponibles": "AT" }, "geometry": { "type": "Point", "coordinates": [ -70.58167, -32.50139 ] } },
{ "type": "Feature", "properties": { "code_internal": "05701011", "name": "Las Hualtatas", "lat": -34.067762, "lon": -70.108742, "elevation": 2020.0, "basin": "Maipo", "fuente": "DGA", "nom_cuen": "Maipo", "longitude": -70.108742, "latitude": -34.067762, "variables_disponibles": "SD" }, "geometry": { "type": "Point", "coordinates": [ -70.108742, -34.067762 ] } },
{ "type": "Feature", "properties": { "code_internal": "05703009", "name": "Laguna Negra", "lat": -33.665833, "lon": -70.107778, "elevation": 2780.0, "basin": "Maipo", "fuente": "DGA", "nom_cuen": "Maipo", "longitude": -70.107778, "latitude": -33.665833, "variables_disponibles": "SD" }, "geometry": { "type": "Point", "coordinates": [ -70.107778, -33.665833 ] } },
{ "type": "Feature", "properties": { "code_internal": "06000004", "name": "Laguna El Yeso", "lat": -34.411111, "lon": -70.210277, "elevation": 2140.0, "basin": "Rapel", "fuente": "DGA", "nom_cuen": "Rapel", "longitude": -70.210277, "latitude": -34.411111, "variables_disponibles": "SD" }, "geometry": { "type": "Point", "coordinates": [ -70.210277, -34.411111 ] } },
{ "type": "Feature", "properties": { "code_internal": "06020001", "name": "Termas Del Flaco", "lat": -34.891667, "lon": -70.329722, "elevation": 2650.0, "basin": "Rapel", "fuente": "DGA", "nom_cuen": "Rapel", "longitude": -70.329722, "latitude": -34.891667, "variables_disponibles": "SD" }, "geometry": { "type": "Point", "coordinates": [ -70.329722, -34.891667 ] } },
{ "type": "Feature", "properties": { "code_internal": "07100006", "name": "Paso Vergara", "lat": -35.195284, "lon": -70.511469, "elevation": 2602.0, "basin": "Mataquito", "fuente": "DGA", "nom_cuen": "Mataquito", "longitude": -70.511469, "latitude": -35.195284, "variables_disponibles": "SD" }, "geometry": { "type": "Point", "coordinates": [ -70.511469, -35.195284 ] } },
{ "type": "Feature", "properties": { "code_internal": "07301000", "name": "Lo Aguirre", "lat": -35.970278, "lon": -70.571944, "elevation": 2000.0, "basin": "Maule", "fuente": "DGA", "nom_cuen": "Maule", "longitude": -70.571944, "latitude": -35.970278, "variables_disponibles": "SD" }, "geometry": { "type": "Point", "coordinates": [ -70.571944, -35.970278 ] } },
{ "type": "Feature", "properties": { "code_internal": "07301001", "name": "Los Condores", "lat": -36.009722, "lon": -70.547778, "elevation": 2441.0, "basin": "Maule", "fuente": "DGA", "nom_cuen": "Maule", "longitude": -70.547778, "latitude": -36.009722, "variables_disponibles": "SD" }, "geometry": { "type": "Point", "coordinates": [ -70.547778, -36.009722 ] } },
{ "type": "Feature", "properties": { "code_internal": "07301002", "name": "NUEVA LO AGUIRRE", "lat": -35.971394, "lon": -70.570011, "elevation": 1997.0, "basin": "Maule", "fuente": "DGA", "nom_cuen": "Maule", "longitude": -70.570011, "latitude": -35.971394, "variables_disponibles": "SD" }, "geometry": { "type": "Point", "coordinates": [ -70.570011, -35.971394 ] } },
{ "type": "Feature", "properties": { "code_internal": "07350008", "name": "Nevado Longavi", "lat": -36.23417, "lon": -71.143339, "elevation": 1974.0, "basin": "Maule", "fuente": "DGA", "nom_cuen": "Maule", "longitude": -71.143339, "latitude": -36.23417, "variables_disponibles": "SD" }, "geometry": { "type": "Point", "coordinates": [ -71.143339, -36.23417 ] } },
{ "type": "Feature", "properties": { "code_internal": "08130009", "name": "Nevado Chillan", "lat": -36.847291, "lon": -71.415957, "elevation": 2610.0, "basin": "Itata", "fuente": "DGA", "nom_cuen": "Itata ", "longitude": -71.415957, "latitude": -36.847291, "variables_disponibles": "AT|SD" }, "geometry": { "type": "Point", "coordinates": [ -71.415957, -36.847291 ] } },
{ "type": "Feature", "properties": { "code_internal": "08301001", "name": "Liucura", "lat": -38.645114, "lon": -71.091007, "elevation": 1152.0, "basin": "Biobio", "fuente": "DGA", "nom_cuen": "Biobio", "longitude": -71.091007, "latitude": -38.645114, "variables_disponibles": "SD" }, "geometry": { "type": "Point", "coordinates": [ -71.091007, -38.645114 ] } },
{ "type": "Feature", "properties": { "code_internal": "08372001", "name": "Alto Mallines", "lat": -37.159067, "lon": -71.242754, "elevation": 1900.0, "basin": "Biobio", "fuente": "DGA", "nom_cuen": "Biobio", "longitude": -71.242754, "latitude": -37.159067, "variables_disponibles": "SD" }, "geometry": { "type": "Point", "coordinates": [ -71.242754, -37.159067 ] } },
{ "type": "Feature", "properties": { "code_internal": "08374001", "name": "Volcan Chillan", "lat": -36.8939, "lon": -71.411944, "elevation": 2393.0, "basin": "Itata", "fuente": "DGA", "nom_cuen": "Itata", "longitude": -71.411944, "latitude": -36.8939, "variables_disponibles": "SD" }, "geometry": { "type": "Point", "coordinates": [ -71.411944, -36.8939 ] } },
{ "type": "Feature", "properties": { "code_internal": "09104", "name": "Laguna Atuel", "lat": -34.511094, "lon": -70.045911, "elevation": 3420.0, "basin": "Mendoza", "fuente": "ainigla?", "nom_cuen": "Mendoza", "longitude": -70.045911, "latitude": -34.511094, "variables_disponibles": "SD" }, "geometry": { "type": "Point", "coordinates": [ -70.045911, -34.511094 ] } },
{ "type": "Feature", "properties": { "code_internal": "09120", "name": "Paso Pehuenche", "lat": -35.979944, "lon": -70.394028, "elevation": 2555.0, "basin": "Mendoza", "fuente": "ainigla?", "nom_cuen": "Mendoza", "longitude": -70.394028, "latitude": -35.979944, "variables_disponibles": "SD" }, "geometry": { "type": "Point", "coordinates": [ -70.394028, -35.979944 ] } },
{ "type": "Feature", "properties": { "code_internal": "09121", "name": "Valle Hermoso", "lat": -35.14225, "lon": -70.201556, "elevation": 2250.0, "basin": "Mendoza", "fuente": "ainigla?", "nom_cuen": "Mendoza", "longitude": -70.201556, "latitude": -35.14225, "variables_disponibles": "SD" }, "geometry": { "type": "Point", "coordinates": [ -70.201556, -35.14225 ] } },
{ "type": "Feature", "properties": { "code_internal": "09131", "name": "Laguna Diamante", "lat": -34.198889, "lon": -69.698139, "elevation": 3300.0, "basin": "Mendoza", "fuente": "ainigla?", "nom_cuen": "Mendoza", "longitude": -69.698139, "latitude": -34.198889, "variables_disponibles": "SD" }, "geometry": { "type": "Point", "coordinates": [ -69.698139, -34.198889 ] } },
{ "type": "Feature", "properties": { "code_internal": "09145", "name": "Toscas", "lat": -33.164167, "lon": -69.888611, "elevation": 3000.0, "basin": "Mendoza", "fuente": "ainigla?", "nom_cuen": "Mendoza", "longitude": -69.888611, "latitude": -33.164167, "variables_disponibles": "SD" }, "geometry": { "type": "Point", "coordinates": [ -69.888611, -33.164167 ] } },
{ "type": "Feature", "properties": { "code_internal": "09160", "name": "Las Le√±as", "lat": -35.139556, "lon": -70.091753, "elevation": 2545.0, "basin": "Mendoza", "fuente": "ainigla?", "nom_cuen": "Mendoza", "longitude": -70.091753, "latitude": -35.139556, "variables_disponibles": "SD" }, "geometry": { "type": "Point", "coordinates": [ -70.091753, -35.139556 ] } },
{ "type": "Feature", "properties": { "code_internal": "09250", "name": "Cerro Negro", "lat": -29.890611, "lon": -69.558083, "elevation": 4172.0, "basin": "San Juan", "fuente": "ainigla?", "nom_cuen": "San Juan", "longitude": -69.558083, "latitude": -29.890611, "variables_disponibles": "SD" }, "geometry": { "type": "Point", "coordinates": [ -69.558083, -29.890611 ] } },
{ "type": "Feature", "properties": { "code_internal": "09300", "name": "Lago Gaucho", "lat": -43.828894, "lon": -71.405436, "elevation": 1165.0, "basin": "Chubut", "fuente": "ainigla?", "nom_cuen": "Chubut", "longitude": -71.405436, "latitude": -43.828894, "variables_disponibles": "SD" }, "geometry": { "type": "Point", "coordinates": [ -71.405436, -43.828894 ] } },
{ "type": "Feature", "properties": { "code_internal": "1150003", "name": "Rio Tranquilo", "lat": -46.653841, "lon": -72.764295, "elevation": 1250.0, "basin": "Baker", "fuente": "CIEP - NERC", "nom_cuen": "Baker", "longitude": -72.764295, "latitude": -46.653841, "variables_disponibles": "SD" }, "geometry": { "type": "Point", "coordinates": [ -72.764295, -46.653841 ] } },
{ "type": "Feature", "properties": { "code_internal": "amtc10", "name": "Yerba Loca Alto", "lat": -33.209, "lon": -70.277, "elevation": 3340.0, "basin": "Maipo", "fuente": "UdeChile", "nom_cuen": "Maipo", "longitude": -70.277, "latitude": -33.209, "variables_disponibles": "SD" }, "geometry": { "type": "Point", "coordinates": [ -70.277, -33.209 ] } },
{ "type": "Feature", "properties": { "code_internal": "amtc12", "name": "Molina Medio", "lat": -33.375434, "lon": -70.241487, "elevation": 2200.0, "basin": "Maipo", "fuente": "UdeChile", "nom_cuen": "Maipo", "longitude": -70.241487, "latitude": -33.375434, "variables_disponibles": "SD" }, "geometry": { "type": "Point", "coordinates": [ -70.241487, -33.375434 ] } },
{ "type": "Feature", "properties": { "code_internal": "amtc13", "name": "Molina en Cepo", "lat": -33.290967, "lon": -70.217264, "elevation": 3380.0, "basin": "Maipo", "fuente": "UdeChile", "nom_cuen": "Maipo", "longitude": -70.217264, "latitude": -33.290967, "variables_disponibles": "SD" }, "geometry": { "type": "Point", "coordinates": [ -70.217264, -33.290967 ] } },
{ "type": "Feature", "properties": { "code_internal": "amtc8", "name": "Yerba Loca Medio", "lat": -33.273, "lon": -70.3, "elevation": 2520.0, "basin": "Maipo", "fuente": "UdeChile", "nom_cuen": "Maipo", "longitude": -70.3, "latitude": -33.273, "variables_disponibles": "SD" }, "geometry": { "type": "Point", "coordinates": [ -70.3, -33.273 ] } },
{ "type": "Feature", "properties": { "code_internal": "piuquenes10", "name": "Piuquenes 10", "lat": -33.31321, "lon": -70.24766, "elevation": 3570.0, "basin": "Maipo", "fuente": "UdeChile", "nom_cuen": "Maipo", "longitude": -70.24766, "latitude": -33.31321, "variables_disponibles": "SD" }, "geometry": { "type": "Point", "coordinates": [ -70.24766, -33.31321 ] } },
{ "type": "Feature", "properties": { "code_internal": "piuquenes14", "name": "Piuquenes 14", "lat": -33.31764, "lon": -70.25167, "elevation": 3380.0, "basin": "Maipo", "fuente": "UdeChile", "nom_cuen": "Maipo", "longitude": -70.25167, "latitude": -33.31764, "variables_disponibles": "SD" }, "geometry": { "type": "Point", "coordinates": [ -70.25167, -33.31764 ] } },
{ "type": "Feature", "properties": { "code_internal": "piuquenes6", "name": "Piuquenes 6", "lat": -33.3165, "lon": -70.26112, "elevation": 3556.0, "basin": "Maipo", "fuente": "UdeChile", "nom_cuen": "Maipo", "longitude": -70.26112, "latitude": -33.3165, "variables_disponibles": "SD" }, "geometry": { "type": "Point", "coordinates": [ -70.26112, -33.3165 ] } },
{ "type": "Feature", "properties": { "code_internal": "piuquenes7", "name": "Piuquenes 7", "lat": -33.31332, "lon": -70.25608, "elevation": 3483.0, "basin": "Maipo", "fuente": "UdeChile", "nom_cuen": "Maipo", "longitude": -70.25608, "latitude": -33.31332, "variables_disponibles": "SD" }, "geometry": { "type": "Point", "coordinates": [ -70.25608, -33.31332 ] } }
]
}
