{
"type": "FeatureCollection",
"name": "estaciones",
"crs": { "type": "name", "properties": { "name": "urn:ogc:def:crs:OGC:1.3:CRS84" } },
"features": [
{ "type": "Feature", "properties": { "code_internal": "04302001", "name": "Rio Toro antes Junta Rio La Laguna", "lat": -29.97278, "lon": -70.09194, "elevation": 2165.0, "basin": "Elqui", "fuente": "DGA", "nom_cuen": "Rio Elqui", "longitude": -70.09194, "latitude": -29.97278 }, "geometry": { "type": "Point", "coordinates": [ -70.09194, -29.97278 ] } },
{ "type": "Feature", "properties": { "code_internal": "04302014", "name": "Juntas", "lat": -29.97667, "lon": -70.09417, "elevation": 2150.0, "basin": "Elqui", "fuente": "DGA", "nom_cuen": "Rio Elqui", "longitude": -70.09417, "latitude": -29.97667 }, "geometry": { "type": "Point", "coordinates": [ -70.09417, -29.97667 ] } },
{ "type": "Feature", "properties": { "code_internal": "04313003", "name": "Cochiguaz", "lat": -30.1425, "lon": -70.40667, "elevation": 1560.0, "basin": "Elqui", "fuente": "DGA", "nom_cuen": "Rio Elqui", "longitude": -70.40667, "latitude": -30.1425 }, "geometry": { "type": "Point", "coordinates": [ -70.40667, -30.1425 ] } },
{ "type": "Feature", "properties": { "code_internal": "04300004", "name": "Glaciar Tapado en Los Corrales", "lat": -30.1554, "lon": -69.88275, "elevation": 4060.0, "basin": "Elqui", "fuente": "DGA", "nom_cuen": "Rio Elqui", "longitude": -69.88275, "latitude": -30.1554 }, "geometry": { "type": "Point", "coordinates": [ -69.88275, -30.1554 ] } },
{ "type": "Feature", "properties": { "code_internal": "0430004", "name": "Tapado (TPF)", "lat": -30.1583, "lon": -69.90818, "elevation": 4306.0, "basin": "Elqui", "fuente": "CEAZAMET", "nom_cuen": "Rio Elqui", "longitude": -69.90818, "latitude": -30.1583 }, "geometry": { "type": "Point", "coordinates": [ -69.90818, -30.1583 ] } },
{ "type": "Feature", "properties": { "code_internal": "04301005", "name": "Embalse La Laguna", "lat": -30.20222, "lon": -70.04139, "elevation": 3160.0, "basin": "Elqui", "fuente": "DGA", "nom_cuen": "Rio Elqui", "longitude": -70.04139, "latitude": -30.20222 }, "geometry": { "type": "Point", "coordinates": [ -70.04139, -30.20222 ] } },
{ "type": "Feature", "properties": { "code_internal": "0430009", "name": "La Laguna", "lat": -30.20311, "lon": -70.03722, "elevation": 3209.0, "basin": "Elqui", "fuente": "CEAZAMET", "nom_cuen": "Rio Elqui", "longitude": -70.03722, "latitude": -30.20311 }, "geometry": { "type": "Point", "coordinates": [ -70.03722, -30.20311 ] } },
{ "type": "Feature", "properties": { "code_internal": "04311005", "name": "La Ortiga", "lat": -30.20972, "lon": -70.49028, "elevation": 1560.0, "basin": "Elqui", "fuente": "DGA", "nom_cuen": "Rio Elqui", "longitude": -70.49028, "latitude": -30.20972 }, "geometry": { "type": "Point", "coordinates": [ -70.49028, -30.20972 ] } },
{ "type": "Feature", "properties": { "code_internal": "04300001", "name": "Cerro Olivares", "lat": -30.25669, "lon": -69.93542, "elevation": 3550.0, "basin": "Elqui", "fuente": "DGA", "nom_cuen": "Rio Elqui", "longitude": -69.93542, "latitude": -30.25669 }, "geometry": { "type": "Point", "coordinates": [ -69.93542, -30.25669 ] } },
{ "type": "Feature", "properties": { "code_internal": "05414004", "name": "Resguardo Los Patos", "lat": -32.50139, "lon": -70.58167, "elevation": 1220.0, "basin": "Aconcagua", "fuente": "DGA", "nom_cuen": "Rio Aconcagua", "longitude": -70.58167, "latitude": -32.50139 }, "geometry": { "type": "Point", "coordinates": [ -70.58167, -32.50139 ] } },
{ "type": "Feature", "properties": { "code_internal": "05415004", "name": "Jahuel", "lat": -32.68722, "lon": -70.59639, "elevation": 1020.0, "basin": "Aconcagua", "fuente": "DGA", "nom_cuen": "Rio Aconcagua", "longitude": -70.59639, "latitude": -32.68722 }, "geometry": { "type": "Point", "coordinates": [ -70.59639, -32.68722 ] } },
{ "type": "Feature", "properties": { "code_internal": "05404001", "name": "Canal Colorado en Bocatoma", "lat": -32.83833, "lon": -70.35528, "elevation": 1391.0, "basin": "Aconcagua", "fuente": "DGA", "nom_cuen": "Rio Aconcagua", "longitude": -70.35528, "latitude": -32.83833 }, "geometry": { "type": "Point", "coordinates": [ -70.35528, -32.83833 ] } },
{ "type": "Feature", "properties": { "code_internal": "05410002", "name": "Rio Aconcagua en Chacabuquito", "lat": -32.85056, "lon": -70.50944, "elevation": 950.0, "basin": "Aconcagua", "fuente": "DGA", "nom_cuen": "Rio Aconcagua", "longitude": -70.50944, "latitude": -32.85056 }, "geometry": { "type": "Point", "coordinates": [ -70.50944, -32.85056 ] } },
{ "type": "Feature", "properties": { "code_internal": "05410006", "name": "Vilcuya", "lat": -32.86028, "lon": -70.47167, "elevation": 1100.0, "basin": "Aconcagua", "fuente": "DGA", "nom_cuen": "Rio Aconcagua", "longitude": -70.47167, "latitude": -32.86028 }, "geometry": { "type": "Point", "coordinates": [ -70.47167, -32.86028 ] } },
{ "type": "Feature", "properties": { "code_internal": "05401003", "name": "Rio Juncal en Juncal", "lat": -32.87028, "lon": -70.14722, "elevation": 2200.0, "basin": "Aconcagua", "fuente": "DGA", "nom_cuen": "Rio Aconcagua", "longitude": -70.14722, "latitude": -32.87028 }, "geometry": { "type": "Point", "coordinates": [ -70.14722, -32.87028 ] } },
{ "type": "Feature", "properties": { "code_internal": "05403002", "name": "Rio Aconcagua en Rio Blanco", "lat": -32.91028, "lon": -70.30722, "elevation": 1420.0, "basin": "Aconcagua", "fuente": "DGA", "nom_cuen": "Rio Aconcagua", "longitude": -70.30722, "latitude": -32.91028 }, "geometry": { "type": "Point", "coordinates": [ -70.30722, -32.91028 ] } },
{ "type": "Feature", "properties": { "code_internal": "05411001", "name": "Estero Pocuro en El Sifon", "lat": -32.92056, "lon": -70.54333, "elevation": 1000.0, "basin": "Aconcagua", "fuente": "DGA", "nom_cuen": "Rio Aconcagua", "longitude": -70.54333, "latitude": -32.92056 }, "geometry": { "type": "Point", "coordinates": [ -70.54333, -32.92056 ] } },
{ "type": "Feature", "properties": { "code_internal": "05403006", "name": "Riecillos", "lat": -32.9225, "lon": -70.35722, "elevation": 1290.0, "basin": "Aconcagua", "fuente": "DGA", "nom_cuen": "Rio Aconcagua", "longitude": -70.35722, "latitude": -32.9225 }, "geometry": { "type": "Point", "coordinates": [ -70.35722, -32.9225 ] } },
{ "type": "Feature", "properties": { "code_internal": "05733007", "name": "Caleu", "lat": -33.00556, "lon": -70.99361, "elevation": 1120.0, "basin": "Maipo", "fuente": "DGA", "nom_cuen": "Rio Maipo", "longitude": -70.99361, "latitude": -33.00556 }, "geometry": { "type": "Point", "coordinates": [ -70.99361, -33.00556 ] } },
{ "type": "Feature", "properties": { "code_internal": "05706004", "name": "Glaciar Juncal Sur", "lat": -33.1175, "lon": -70.1119, "elevation": 4035.0, "basin": "Maipo", "fuente": "DGA", "nom_cuen": "Rio Maipo", "longitude": -70.1119, "latitude": -33.1175 }, "geometry": { "type": "Point", "coordinates": [ -70.1119, -33.1175 ] } },
{ "type": "Feature", "properties": { "code_internal": "05706002", "name": "Glaciar Olivares Gamma", "lat": -33.15639, "lon": -70.15278, "elevation": 3628.0, "basin": "Maipo", "fuente": "DGA", "nom_cuen": "Rio Maipo", "longitude": -70.15278, "latitude": -33.15639 }, "geometry": { "type": "Point", "coordinates": [ -70.15278, -33.15639 ] } },
{ "type": "Feature", "properties": { "code_internal": "05706005", "name": "Glaciar Olivares Alfa", "lat": -33.1786, "lon": -70.21806, "elevation": 4230.0, "basin": "Maipo", "fuente": "DGA", "nom_cuen": "Rio Maipo", "longitude": -70.21806, "latitude": -33.1786 }, "geometry": { "type": "Point", "coordinates": [ -70.21806, -33.1786 ] } },
{ "type": "Feature", "properties": { "code_internal": "05706003", "name": "Valle Olivares", "lat": -33.19099, "lon": -70.11405, "elevation": 2787.0, "basin": "Maipo", "fuente": "DGA", "nom_cuen": "Rio Maipo", "longitude": -70.11405, "latitude": -33.19099 }, "geometry": { "type": "Point", "coordinates": [ -70.11405, -33.19099 ] } },
{ "type": "Feature", "properties": { "code_internal": "05721017", "name": "Estero Yerba Loca en Piedra Carvajal", "lat": -33.22194, "lon": -70.27361, "elevation": 3250.0, "basin": "Maipo", "fuente": "DGA", "nom_cuen": "Rio Maipo", "longitude": -70.27361, "latitude": -33.22194 }, "geometry": { "type": "Point", "coordinates": [ -70.27361, -33.22194 ] } },
{ "type": "Feature", "properties": { "code_internal": "05721016", "name": "Rio San Francisco antes Junta Estero Yerba Loca", "lat": -33.30861, "lon": -70.35722, "elevation": 1535.0, "basin": "Maipo", "fuente": "DGA", "nom_cuen": "Rio Maipo", "longitude": -70.35722, "latitude": -33.30861 }, "geometry": { "type": "Point", "coordinates": [ -70.35722, -33.30861 ] } },
{ "type": "Feature", "properties": { "code_internal": "cerro3puntas", "name": "Cerro3Puntas", "lat": -33.32, "lon": -70.23194, "elevation": 3685.0, "basin": "Maipo", "fuente": "CR2", "nom_cuen": "Rio Maipo", "longitude": -70.23194, "latitude": -33.32 }, "geometry": { "type": "Point", "coordinates": [ -70.23194, -33.32 ] } },
{ "type": "Feature", "properties": { "code_internal": "05722001", "name": "Estero Arrayan en La Montosa", "lat": -33.32889, "lon": -70.45944, "elevation": 880.0, "basin": "Maipo", "fuente": "DGA", "nom_cuen": "Rio Maipo", "longitude": -70.45944, "latitude": -33.32889 }, "geometry": { "type": "Point", "coordinates": [ -70.45944, -33.32889 ] } },
{ "type": "Feature", "properties": { "code_internal": "05721001", "name": "Estero Yerba Loca antes Junta San Francisco", "lat": -33.34444, "lon": -70.36389, "elevation": 1350.0, "basin": "Maipo", "fuente": "DGA", "nom_cuen": "Rio Maipo", "longitude": -70.36389, "latitude": -33.34444 }, "geometry": { "type": "Point", "coordinates": [ -70.36389, -33.34444 ] } },
{ "type": "Feature", "properties": { "code_internal": "05720001", "name": "Rio Molina antes Junta San Francisco", "lat": -33.37361, "lon": -70.39639, "elevation": 1158.0, "basin": "Maipo", "fuente": "DGA", "nom_cuen": "Rio Maipo", "longitude": -70.39639, "latitude": -33.37361 }, "geometry": { "type": "Point", "coordinates": [ -70.39639, -33.37361 ] } },
{ "type": "Feature", "properties": { "code_internal": "05706001", "name": "Rio Olivares antes Junta Rio Colorado", "lat": -33.49306, "lon": -70.1375, "elevation": 1580.0, "basin": "Maipo", "fuente": "DGA", "nom_cuen": "Rio Maipo", "longitude": -70.1375, "latitude": -33.49306 }, "geometry": { "type": "Point", "coordinates": [ -70.1375, -33.49306 ] } },
{ "type": "Feature", "properties": { "code_internal": "05705001", "name": "Rio Colorado Antes Junta Rio Olivares", "lat": -33.495, "lon": -70.13722, "elevation": 1550.0, "basin": "Maipo", "fuente": "DGA", "nom_cuen": "Rio Maipo", "longitude": -70.13722, "latitude": -33.495 }, "geometry": { "type": "Point", "coordinates": [ -70.13722, -33.495 ] } },
{ "type": "Feature", "properties": { "code_internal": "05707003", "name": "Maitenes", "lat": -33.53111, "lon": -70.26194, "elevation": 1143.0, "basin": "Maipo", "fuente": "DGA", "nom_cuen": "Rio Maipo", "longitude": -70.26194, "latitude": -33.53111 }, "geometry": { "type": "Point", "coordinates": [ -70.26194, -33.53111 ] } },
{ "type": "Feature", "properties": { "code_internal": "05703014", "name": "Termas Del Plomo", "lat": -33.6133, "lon": -69.9058, "elevation": 3000.0, "basin": "Maipo", "fuente": "DGA", "nom_cuen": "Rio Maipo", "longitude": -69.9058, "latitude": -33.6133 }, "geometry": { "type": "Point", "coordinates": [ -69.9058, -33.6133 ] } },
{ "type": "Feature", "properties": { "code_internal": "05703008", "name": "El Yeso Embalse", "lat": -33.67583, "lon": -70.08861, "elevation": 2475.0, "basin": "Maipo", "fuente": "DGA", "nom_cuen": "Rio Maipo", "longitude": -70.08861, "latitude": -33.67583 }, "geometry": { "type": "Point", "coordinates": [ -70.08861, -33.67583 ] } },
{ "type": "Feature", "properties": { "code_internal": "05704004", "name": "San Gabriel", "lat": -33.7825, "lon": -70.23944, "elevation": 1266.0, "basin": "Maipo", "fuente": "DGA", "nom_cuen": "Rio Maipo", "longitude": -70.23944, "latitude": -33.7825 }, "geometry": { "type": "Point", "coordinates": [ -70.23944, -33.7825 ] } },
{ "type": "Feature", "properties": { "code_internal": "05702011", "name": "Glaciar San Francisco en Aguas Panimavida", "lat": -33.80583, "lon": -70.07, "elevation": 2220.0, "basin": "Maipo", "fuente": "DGA", "nom_cuen": "Rio Maipo", "longitude": -70.07, "latitude": -33.80583 }, "geometry": { "type": "Point", "coordinates": [ -70.07, -33.80583 ] } },
{ "type": "Feature", "properties": { "code_internal": "05702001", "name": "Rio Volcan en Queltehues", "lat": -33.80944, "lon": -70.21028, "elevation": 1365.0, "basin": "Maipo", "fuente": "DGA", "nom_cuen": "Rio Maipo", "longitude": -70.21028, "latitude": -33.80944 }, "geometry": { "type": "Point", "coordinates": [ -70.21028, -33.80944 ] } },
{ "type": "Feature", "properties": { "code_internal": "05701009", "name": "Rio Maipo en Queltehues", "lat": -33.81694, "lon": -70.22361, "elevation": 1317.0, "basin": "Maipo", "fuente": "DGA", "nom_cuen": "Rio Maipo", "longitude": -70.22361, "latitude": -33.81694 }, "geometry": { "type": "Point", "coordinates": [ -70.22361, -33.81694 ] } },
{ "type": "Feature", "properties": { "code_internal": "05701010", "name": "Las Melosas Ruta de Nieve", "lat": -33.86389, "lon": -70.2725, "elevation": 3320.0, "basin": "Maipo", "fuente": "DGA", "nom_cuen": "Rio Maipo", "longitude": -70.2725, "latitude": -33.86389 }, "geometry": { "type": "Point", "coordinates": [ -70.2725, -33.86389 ] } },
{ "type": "Feature", "properties": { "code_internal": "08130006", "name": "Diguillin", "lat": -36.87056, "lon": -71.6425, "elevation": 670.0, "basin": "Itata", "fuente": "DGA", "nom_cuen": "Rio Itata", "longitude": -71.6425, "latitude": -36.87056 }, "geometry": { "type": "Point", "coordinates": [ -71.6425, -36.87056 ] } },
{ "type": "Feature", "properties": { "code_internal": "08130004", "name": "Las Trancas", "lat": -36.91083, "lon": -71.47944, "elevation": 1242.0, "basin": "Itata", "fuente": "DGA", "nom_cuen": "Rio Itata", "longitude": -71.47944, "latitude": -36.91083 }, "geometry": { "type": "Point", "coordinates": [ -71.47944, -36.91083 ] } },
{ "type": "Feature", "properties": { "code_internal": "08130002", "name": "Rio Diguillin en San Lorenzo (Atacalco)", "lat": -36.92444, "lon": -71.57583, "elevation": 727.0, "basin": "Itata", "fuente": "DGA", "nom_cuen": "Rio Itata", "longitude": -71.57583, "latitude": -36.92444 }, "geometry": { "type": "Point", "coordinates": [ -71.57583, -36.92444 ] } },
{ "type": "Feature", "properties": { "code_internal": "09401001", "name": "Tricauco", "lat": -38.84389, "lon": -71.55139, "elevation": 520.0, "basin": "Tolten", "fuente": "DGA", "nom_cuen": "Rio Tolten", "longitude": -71.55139, "latitude": -38.84389 }, "geometry": { "type": "Point", "coordinates": [ -71.55139, -38.84389 ] } },
{ "type": "Feature", "properties": { "code_internal": "09416002", "name": "Lago Tinquilco", "lat": -39.1725, "lon": -71.73194, "elevation": 850.0, "basin": "Tolten", "fuente": "DGA", "nom_cuen": "Rio Tolten", "longitude": -71.73194, "latitude": -39.1725 }, "geometry": { "type": "Point", "coordinates": [ -71.73194, -39.1725 ] } },
{ "type": "Feature", "properties": { "code_internal": "09412002", "name": "Curarrehue", "lat": -39.365, "lon": -71.58222, "elevation": 420.0, "basin": "Tolten", "fuente": "DGA", "nom_cuen": "Rio Tolten", "longitude": -71.58222, "latitude": -39.365 }, "geometry": { "type": "Point", "coordinates": [ -71.58222, -39.365 ] } },
{ "type": "Feature", "properties": { "code_internal": "1110001", "name": "Puyuhuapi", "lat": -44.4479, "lon": -72.5968, "elevation": null, "basin": "Costeras (111)", "fuente": "CIEP", "nom_cuen": "Costeras e Islas entre R.Palena y R.Aisen", "longitude": -72.5968, "latitude": -44.4479 }, "geometry": { "type": "Point", "coordinates": [ -72.5968, -44.4479 ] } },
{ "type": "Feature", "properties": { "code_internal": "1110002", "name": "Puerto Cisnes", "lat": -44.7447, "lon": -72.7016, "elevation": null, "basin": "Costeras (111)", "fuente": "CIEP", "nom_cuen": "Costeras e Islas entre R.Palena y R.Aisen", "longitude": -72.7016, "latitude": -44.7447 }, "geometry": { "type": "Point", "coordinates": [ -72.7016, -44.7447 ] } },
{ "type": "Feature", "properties": { "code_internal": "1130002", "name": "Mirador Marchant. Coyhaique", "lat": -45.5253, "lon": -72.0981, "elevation": null, "basin": "Aysen", "fuente": "DMC", "nom_cuen": "Rio Aisen", "longitude": -72.0981, "latitude": -45.5253 }, "geometry": { "type": "Point", "coordinates": [ -72.0981, -45.5253 ] } },
{ "type": "Feature", "properties": { "code_internal": "1130003", "name": "Teniente Vidal. Coyhaique Ad", "lat": -45.5908, "lon": -72.1022, "elevation": 299.0, "basin": "Aysen", "fuente": "DMC", "nom_cuen": "Rio Aisen", "longitude": -72.1022, "latitude": -45.5908 }, "geometry": { "type": "Point", "coordinates": [ -72.1022, -45.5908 ] } },
{ "type": "Feature", "properties": { "code_internal": "1130001", "name": "Cordon Divisadero", "lat": -45.61647, "lon": -72.01345, "elevation": 1430.0, "basin": "Aysen", "fuente": "CECS", "nom_cuen": "Rio Aisen", "longitude": -72.01345, "latitude": -45.61647 }, "geometry": { "type": "Point", "coordinates": [ -72.01345, -45.61647 ] } },
{ "type": "Feature", "properties": { "code_internal": "1130004", "name": "Balmaceda Ad", "lat": -45.9183, "lon": -71.6778, "elevation": 517.0, "basin": "Aysen", "fuente": "DMC", "nom_cuen": "Rio Aisen", "longitude": -71.6778, "latitude": -45.9183 }, "geometry": { "type": "Point", "coordinates": [ -71.6778, -45.9183 ] } },
{ "type": "Feature", "properties": { "code_internal": "11503002", "name": "Portezuelo Iba ez", "lat": -46.0778, "lon": -72.0508, "elevation": 1080.0, "basin": "Baker", "fuente": "DGA", "nom_cuen": "Rio Baker", "longitude": -72.0508, "latitude": -46.0778 }, "geometry": { "type": "Point", "coordinates": [ -72.0508, -46.0778 ] } },
{ "type": "Feature", "properties": { "code_internal": "11503001", "name": "Villa Cerro Castillo", "lat": -46.12111, "lon": -72.15861, "elevation": 345.0, "basin": "Baker", "fuente": "DGA", "nom_cuen": "Rio Baker", "longitude": -72.15861, "latitude": -46.12111 }, "geometry": { "type": "Point", "coordinates": [ -72.15861, -46.12111 ] } },
{ "type": "Feature", "properties": { "code_internal": "11505001", "name": "Rio Iba ez en Desembocadura", "lat": -46.26861, "lon": -71.98889, "elevation": 220.0, "basin": "Baker", "fuente": "DGA", "nom_cuen": "Rio Baker", "longitude": -71.98889, "latitude": -46.26861 }, "geometry": { "type": "Point", "coordinates": [ -71.98889, -46.26861 ] } },
{ "type": "Feature", "properties": { "code_internal": "11513001", "name": "Bahia Murta", "lat": -46.45583, "lon": -72.6725, "elevation": 240.0, "basin": "Baker", "fuente": "DGA", "nom_cuen": "Rio Baker", "longitude": -72.6725, "latitude": -46.45583 }, "geometry": { "type": "Point", "coordinates": [ -72.6725, -46.45583 ] } },
{ "type": "Feature", "properties": { "code_internal": "11521002", "name": "Chile Chico", "lat": -46.54333, "lon": -71.69944, "elevation": 215.0, "basin": "Baker", "fuente": "DGA", "nom_cuen": "Rio Baker", "longitude": -71.69944, "latitude": -46.54333 }, "geometry": { "type": "Point", "coordinates": [ -71.69944, -46.54333 ] } },
{ "type": "Feature", "properties": { "code_internal": "11521005", "name": "Lago General Carrera Fachinal", "lat": -46.54333, "lon": -72.22639, "elevation": 18.0, "basin": "Baker", "fuente": "DGA", "nom_cuen": "Rio Baker", "longitude": -72.22639, "latitude": -46.54333 }, "geometry": { "type": "Point", "coordinates": [ -72.22639, -46.54333 ] } },
{ "type": "Feature", "properties": { "code_internal": "1150001", "name": "Rio Tranquilo", "lat": -46.6341, "lon": -72.6484, "elevation": null, "basin": "Baker", "fuente": "CIEP", "nom_cuen": "Rio Baker", "longitude": -72.6484, "latitude": -46.6341 }, "geometry": { "type": "Point", "coordinates": [ -72.6484, -46.6341 ] } },
{ "type": "Feature", "properties": { "code_internal": "11523002", "name": "Lago General Carrera en Puerto Guadal", "lat": -46.84194, "lon": -72.69722, "elevation": 205.0, "basin": "Baker", "fuente": "DGA", "nom_cuen": "Rio Baker", "longitude": -72.69722, "latitude": -46.84194 }, "geometry": { "type": "Point", "coordinates": [ -72.69722, -46.84194 ] } },
{ "type": "Feature", "properties": { "code_internal": "11517002", "name": "Lago General Carrera en Desag e", "lat": -46.84639, "lon": -72.80333, "elevation": 210.0, "basin": "Baker", "fuente": "DGA", "nom_cuen": "Rio Baker", "longitude": -72.80333, "latitude": -46.84639 }, "geometry": { "type": "Point", "coordinates": [ -72.80333, -46.84639 ] } },
{ "type": "Feature", "properties": { "code_internal": "11533001", "name": "Estancia Valle Chacabuco", "lat": -47.11861, "lon": -72.49389, "elevation": 343.0, "basin": "Baker", "fuente": "DGA", "nom_cuen": "Rio Baker", "longitude": -72.49389, "latitude": -47.11861 }, "geometry": { "type": "Point", "coordinates": [ -72.49389, -47.11861 ] } },
{ "type": "Feature", "properties": { "code_internal": "11532001", "name": "Rio Nef antes Junta Estero El Rebalse", "lat": -47.14, "lon": -73.09389, "elevation": 280.0, "basin": "Baker", "fuente": "DGA", "nom_cuen": "Rio Baker", "longitude": -73.09389, "latitude": -47.14 }, "geometry": { "type": "Point", "coordinates": [ -73.09389, -47.14 ] } },
{ "type": "Feature", "properties": { "code_internal": "11540000", "name": "Lago Cachet 2 en Glaciar Colonia ", "lat": -47.19889, "lon": -73.25, "elevation": 427.0, "basin": "Baker", "fuente": "DGA", "nom_cuen": "Rio Baker", "longitude": -73.25, "latitude": -47.19889 }, "geometry": { "type": "Point", "coordinates": [ -73.25, -47.19889 ] } },
{ "type": "Feature", "properties": { "code_internal": "1150002", "name": "Tortel", "lat": -47.7949, "lon": -73.5316, "elevation": null, "basin": "Baker", "fuente": "CIEP", "nom_cuen": "Rio Baker", "longitude": -73.5316, "latitude": -47.7949 }, "geometry": { "type": "Point", "coordinates": [ -73.5316, -47.7949 ] } }
]
}
